[
{"name": "Shan-E-Mohammadi Mosque", "address": "Royal Road Notre Dame Mauritius", "location_name": "Pamplemousses", "lat": "-20.14326200", "lng": "57.56003100", "url": "https://www.halaltrip.com/mosque-details/2909/shan-e-mohammadi-mosque/", "arbitrary": [{"Address": "Royal Road Notre Dame Mauritius"}]},
{"name": "Masjid Al-Ghurabaa, Pereybere", "address": "Masjid Al-Ghurabaa Paradizo Lane Pereybere Riv Du Rempart Mauritius ", "location_name": "Pereybere", "lat": "-19.99907500", "lng": "57.58866900", "url": "https://www.halaltrip.com/mosque-details/295/masjid-al-ghurabaa-pereybere/", "arbitrary": [{"Address": "Masjid Al-Ghurabaa Paradizo Lane Pereybere Riv Du Rempart Mauritius "}, {"Phone No": "\n(230) 684 5204 (230) 684 5204 "}, {"Language of service": "\nEnglish "}, {"Prayers": "\nAll prayers including formal jum'a "}]},
{"name": "Ashaab-us-suffa", "address": "Topize Rd, Grand Baie, Mauritius", "location_name": "Mauritius", "lat": "-20.01853700", "lng": "57.57272300", "url": "https://www.halaltrip.com/mosque-details/4833/ashaab-us-suffa/", "arbitrary": [{"Address": "Topize Rd, Grand Baie, Mauritius"}, {"Prayers": "\nFive daily prayers "}]},
{"name": "The Vale Jummah Mosque", "address": "To Petit Raffray The Vale Mauritius", "location_name": "Port Louis", "lat": "-20.02952200", "lng": "57.60226000", "url": "https://www.halaltrip.com/mosque-details/2906/the-vale-jummah-mosque/", "arbitrary": [{"Address": "To Petit Raffray The Vale Mauritius"}]},
{"name": "Vale Cademee Mosque", "address": "The Vale Mauritius", "location_name": "Port Louis", "lat": "-20.03105400", "lng": "57.59530800", "url": "https://www.halaltrip.com/mosque-details/2905/vale-cademee-mosque/", "arbitrary": [{"Address": "The Vale Mauritius"}]},
{"name": "Ronaq-Ul-Islam Masjid, Grand Baie", "address": "Ronaq-Ul-Islam Masjid Royal Road Grand Baie Riviere du Rempart Mauritius", "location_name": "Mauritius", "lat": "-20.03210500", "lng": "57.54814100", "url": "https://www.halaltrip.com/mosque-details/297/ronaq-ul-islam-masjid-grand-baie/", "arbitrary": [{"Address": "Ronaq-Ul-Islam Masjid Royal Road Grand Baie Riviere du Rempart Mauritius"}, {"Language of service": "\nEnglish "}, {"Prayers": "\nAll prayers including formal jum'a "}]},
{"name": "Mosque", "address": "Royal Rd Morcellement St Andre Mauritius", "location_name": "Pamplemousses", "lat": "-20.07136800", "lng": "57.56518100", "url": "https://www.halaltrip.com/mosque-details/2907/mosque/", "arbitrary": [{"Address": "Royal Rd Morcellement St Andre Mauritius"}]},
{"name": "Mosque", "address": "A 6 Rivière du Rempart Mauritius", "location_name": "Rivière du Rempart", "lat": "-20.10434000", "lng": "57.69085100", "url": "https://www.halaltrip.com/mosque-details/2910/mosque/", "arbitrary": [{"Address": "A 6 Rivière du Rempart Mauritius"}]},
{"name": "Mosque", "address": "Camp des Embrevades Rd Pamplemousses Mauritius", "location_name": "Pamplemousses", "lat": "-20.11554000", "lng": "57.57719700", "url": "https://www.halaltrip.com/mosque-details/2908/mosque/", "arbitrary": [{"Address": "Camp des Embrevades Rd Pamplemousses Mauritius"}]},
{"name": "Jummah Masjid", "address": "Royal Road A1 Port Louis, Mauritius", "location_name": "Port Louis", "lat": "-20.15967600", "lng": "57.50506100", "url": "https://www.halaltrip.com/mosque-details/2904/jummah-masjid/", "arbitrary": [{"Address": "Royal Road A1 Port Louis, Mauritius"}, {"Phone No": "\n230 242 8025 "}, {"Website": "\nhttp://www.jummahmasjid.org/ "}]},
{"name": "Al Aqsa Mosque", "address": "Calcutta Street, Port Louis, Mauritius", "location_name": "Port Louis", "lat": "-20.16006500", "lng": "57.51407000", "url": "https://www.halaltrip.com/mosque-details/3663/al-aqsa-mosque/", "arbitrary": [{"Address": "Calcutta Street, Port Louis, Mauritius"}, {"Language of service": "\nEnglish "}, {"Prayers": "\nFive daily prayers, Jumu'ah prayers "}]},
{"name": "Aisha Masjid, Port Louis", "address": "Aisha Masjid Quinze Cantons Vacoas Port Louis Mauritius", "location_name": "Port Louis", "lat": "-20.16527900", "lng": "57.49638000", "url": "https://www.halaltrip.com/mosque-details/291/aisha-masjid-port-louis/", "arbitrary": [{"Address": "Aisha Masjid Quinze Cantons Vacoas Port Louis Mauritius"}, {"Email": "albany@intnet.mu"}, {"Language of service": "English"}, {"Prayers": "All prayers including formal jum'a"}, {"Quick Facts ": "Toilets"}]},
{"name": "Al Fitrah Society Future Madrassah / Masjid", "address": "Ave des Canaris, Albion, Mauritius", "location_name": "Albion", "lat": "-20.21426700", "lng": "57.41000000", "url": "https://www.halaltrip.com/mosque-details/10792/al-fitrah-society-future-madrassah-masjid/", "arbitrary": [{"Address": "Ave des Canaris, Albion, Mauritius"}]},
{"name": "Bait-Ul-Noor, Port Louis", "address": "Bait-Ul-Noor Sophia Road Vallee Des Pretres Port Louis Mauritius", "location_name": "Port Louis", "lat": "-20.16702200", "lng": "57.53487700", "url": "https://www.halaltrip.com/mosque-details/293/bait-ul-noor-port-louis/", "arbitrary": [{"Address": "Bait-Ul-Noor Sophia Road Vallee Des Pretres Port Louis Mauritius"}, {"Language of service": "\nEnglish "}, {"Prayers": "\nAll prayers including formal jum'a "}]},
{"name": "Al Waadi Masjid, Port Louis", "address": "Al Waadi Masjid 5 rue Alma Vallee Pitot Port Louis 00230 Mauritius", "location_name": "Port Louis", "lat": "-20.17037200", "lng": "57.52024900", "url": "https://www.halaltrip.com/mosque-details/292/al-waadi-masjid-port-louis/", "arbitrary": [{"Address": "Al Waadi Masjid 5 rue Alma Vallee Pitot Port Louis 00230 Mauritius"}, {"Language of service": "\nEnglish "}, {"Prayers": "\nAll prayers including formal jum'a "}]},
{"name": "Shaan-e-Mohamadd Masjid, Notre Dame", "address": "Shaan-e-Mohamadd Masjid Royal Road Notre Dame Pamplemousses Mauritius ", "location_name": "Mauritius", "lat": "-20.41726100", "lng": "57.70459600", "url": "https://www.halaltrip.com/mosque-details/296/shaan-e-mohamadd-masjid-notre-dame/", "arbitrary": [{"Address": "Shaan-e-Mohamadd Masjid Royal Road Notre Dame Pamplemousses Mauritius "}, {"Phone No": "\n(230) 2639142 (230) 263 1438 "}, {"Language of service": "\nEnglish "}, {"Prayers": "\nAll prayers including formal jum'a "}]},
{"name": "Mosque", "address": "Mahebourg Mauritius", "location_name": "Mahébourg", "lat": "-20.41040400", "lng": "57.70661500", "url": "https://www.halaltrip.com/mosque-details/2911/mosque/", "arbitrary": [{"Address": "Mahebourg Mauritius"}]},
{"name": "Mahebourg Jummah Mosque", "address": "Rue des Delices, Mahebourg, Mauritius", "location_name": "Mauritius", "lat": "-20.41037300", "lng": "57.70654700", "url": "https://www.halaltrip.com/mosque-details/3665/mahebourg-jummah-mosque/", "arbitrary": [{"Address": "Rue des Delices, Mahebourg, Mauritius"}, {"Language of service": "\nEnglish "}, {"Prayers": "\nFive daily prayers, Jumu'ah prayers "}]},
{"name": "Noor E Muhammadi Masjid", "address": "B8, L Escalier, Mauritius", "location_name": "Mauritius", "lat": "-20.47873900", "lng": "57.61809700", "url": "https://www.halaltrip.com/mosque-details/3664/noor-e-muhammadi-masjid/", "arbitrary": [{"Address": "B8, L Escalier, Mauritius"}, {"Language of service": "\nEnglish "}, {"Prayers": "\nFive daily prayers, Jumu'ah prayers "}]},
{"name": "Bait - Ul - Muqaddas Masjid, Beau Bassin", "address": "Bait - Ul - Muqaddas Masjid Barkley Asylum Street Beau Bassin Plaines Wilhems Mauritius", "location_name": "Mauritius", "lat": "-20.23333300", "lng": "57.46666700", "url": "https://www.halaltrip.com/mosque-details/290/bait-ul-muqaddas-masjid-beau-bassin/", "arbitrary": [{"Address": "Bait - Ul - Muqaddas Masjid Barkley Asylum Street Beau Bassin Plaines Wilhems Mauritius"}, {"Phone No": "\n230-465 4340 "}, {"Language of service": "\nEnglish "}, {"Prayers": "\nAll prayers including formal jum'a "}]},
{"name": "Ad Dawah Al Islamiah Masjid, Beau Bassin", "address": "Ad Dawah Al Islamiah Masjid Bikoo Street Beau Bassin Plaines Wilhems Mauritius", "location_name": "Mauritius", "lat": "-20.23333300", "lng": "57.46666700", "url": "https://www.halaltrip.com/mosque-details/289/ad-dawah-al-islamiah-masjid-beau-bassin/", "arbitrary": [{"Address": "Ad Dawah Al Islamiah Masjid Bikoo Street Beau Bassin Plaines Wilhems Mauritius"}, {"Language of service": "\nEnglish "}, {"Prayers": "\nAll prayers including formal jum'a "}]},
{"name": "Hassanoul Masaajid Masjid L'escalier", "address": "Royal Road, B8, L Escalier, Mauritius", "location_name": "Mauritius", "lat": "-20.47101140", "lng": "57.61893360", "url": "https://www.halaltrip.com/mosque-details/6648/hassanoul-masaajid-masjid-lescalier/", "arbitrary": [{"Address": "Royal Road, B8, L Escalier, Mauritius"}]},
{"name": "Quatre-Bornes Sunnee Masjid, Quatre Bornes", "address": "Quatre-Bornes Sunnee Masjid Malartic Street Quatre Bornes Plaines Wilhems Mauritius ", "location_name": "Quatre Bornes", "lat": "-20.23802300", "lng": "57.47364600", "url": "https://www.halaltrip.com/mosque-details/298/quatre-bornes-sunnee-masjid-quatre-bornes/", "arbitrary": [{"Address": "Quatre-Bornes Sunnee Masjid Malartic Street Quatre Bornes Plaines Wilhems Mauritius "}, {"Language of service": "\nEnglish "}, {"Prayers": "\nAll prayers including formal jum'a "}]},
{"name": "Centre Islamique De Glen Park, Vacoas", "address": "Centre Islamique De Glen Park Diolle Glen Park Vacoas Mauritius", "location_name": "Mauritius", "lat": "-20.32552000", "lng": "57.48677100", "url": "https://www.halaltrip.com/mosque-details/294/centre-islamique-de-glen-park-vacoas/", "arbitrary": [{"Address": "Centre Islamique De Glen Park Diolle Glen Park Vacoas Mauritius"}, {"Phone No": "\n(230) 2163155 "}, {"Language of service": "\nEnglish "}, {"Prayers": "\nAll prayers including formal jum'a "}]}
]
